{
  "type": "FeatureCollection",
  "features": [
    {
      "type": "Feature",
      "geometry": {
        "type": "Point",
        "coordinates": [
          -77.029149,
          38.902918
        ]
      },
      "properties": {
        "id": 286,
        "type": "facility",
        "name": "CoreSite - Washington,DC (DC1)",
        "address": "1275 K Street, NW",
        "city": "Washington",
        "state": "DC",
        "netCount": 14,
        "ixCount": 2,
        "region": "DC Metro"
      }
    },
    {
      "type": "Feature",
      "geometry": {
        "type": "Point",
        "coordinates": [
          -77.047082,
          38.904888
        ]
      },
      "properties": {
        "id": 2971,
        "type": "facility",
        "name": "Zayo Washington DC - 2100 M Street NW",
        "address": "2100 M Street NW",
        "city": "Washington",
        "state": "DC",
        "netCount": 2,
        "ixCount": 0,
        "region": "DC Metro"
      }
    },
    {
      "type": "Feature",
      "geometry": {
        "type": "Point",
        "coordinates": [
          -77.003861,
          38.90101
        ]
      },
      "properties": {
        "id": 6543,
        "type": "facility",
        "name": "AiNET DC-900S",
        "address": "900 2nd Street NE",
        "city": "Washington",
        "state": "DC",
        "netCount": 1,
        "ixCount": 0,
        "region": "DC Metro"
      }
    },
    {
      "type": "Feature",
      "geometry": {
        "type": "Point",
        "coordinates": [
          -77.031169,
          38.903404
        ]
      },
      "properties": {
        "id": 9663,
        "type": "facility",
        "name": "CoreSite - Washington,DC (DC2)",
        "address": "1099 14th Street NW",
        "city": "Washington",
        "state": "DC",
        "netCount": 3,
        "ixCount": 1,
        "region": "DC Metro"
      }
    },
    {
      "type": "Feature",
      "geometry": {
        "type": "Point",
        "coordinates": [
          -77.459023,
          39.016363
        ]
      },
      "properties": {
        "id": 1,
        "type": "facility",
        "name": "Equinix DC1-DC15, DC21 - Ashburn",
        "address": "21715 Filigree Ct",
        "city": "Ashburn",
        "state": "VA",
        "netCount": 473,
        "ixCount": 7,
        "region": "DC Metro"
      }
    },
    {
      "type": "Feature",
      "geometry": {
        "type": "Point",
        "coordinates": [
          -77.462489,
          39.017808
        ]
      },
      "properties": {
        "id": 408,
        "type": "facility",
        "name": "Digital Realty IAD (44480 Hastings)",
        "address": "44480 Hastings Drive",
        "city": "Ashburn",
        "state": "VA",
        "netCount": 8,
        "ixCount": 2,
        "region": "DC Metro"
      }
    },
    {
      "type": "Feature",
      "geometry": {
        "type": "Point",
        "coordinates": [
          -77.455012,
          39.022561
        ]
      },
      "properties": {
        "id": 1112,
        "type": "facility",
        "name": "RagingWire VA1 - NTT",
        "address": "44664 Guilford Drive",
        "city": "Ashburn",
        "state": "VA",
        "netCount": 22,
        "ixCount": 1,
        "region": "DC Metro"
      }
    },
    {
      "type": "Feature",
      "geometry": {
        "type": "Point",
        "coordinates": [
          -77.48158,
          39.015966
        ]
      },
      "properties": {
        "id": 1223,
        "type": "facility",
        "name": "DataBank Ashburn (IAD1)",
        "address": "21635 Red Rum Dr.",
        "city": "Ashburn",
        "state": "VA",
        "netCount": 21,
        "ixCount": 2,
        "region": "DC Metro"
      }
    },
    {
      "type": "Feature",
      "geometry": {
        "type": "Point",
        "coordinates": [
          -77.463206,
          39.020131
        ]
      },
      "properties": {
        "id": 1380,
        "type": "facility",
        "name": "Digital Realty IAD (44521 Hastings)",
        "address": "44521 Hastings Drive",
        "city": "Ashburn",
        "state": "VA",
        "netCount": 5,
        "ixCount": 2,
        "region": "DC Metro"
      }
    },
    {
      "type": "Feature",
      "geometry": {
        "type": "Point",
        "coordinates": [
          -77.463564,
          39.021133
        ]
      },
      "properties": {
        "id": 1381,
        "type": "facility",
        "name": "Digital Realty IAD (44461 Chilum)",
        "address": "44461 Chilum Place",
        "city": "Ashburn",
        "state": "VA",
        "netCount": 3,
        "ixCount": 2,
        "region": "DC Metro"
      }
    },
    {
      "type": "Feature",
      "geometry": {
        "type": "Point",
        "coordinates": [
          -77.479198,
          39.000821
        ]
      },
      "properties": {
        "id": 1878,
        "type": "facility",
        "name": "Digital Realty IAD (43940 Digital Loudoun)",
        "address": "43940 Digital Loudoun Plaza",
        "city": "Ashburn",
        "state": "VA",
        "netCount": 3,
        "ixCount": 1,
        "region": "DC Metro"
      }
    },
    {
      "type": "Feature",
      "geometry": {
        "type": "Point",
        "coordinates": [
          -77.451713,
          39.013682
        ]
      },
      "properties": {
        "id": 3080,
        "type": "facility",
        "name": "H5 Data Centers Ashburn",
        "address": "21800 Beaumeade Cir",
        "city": "Ashburn",
        "state": "VA",
        "netCount": 2,
        "ixCount": 0,
        "region": "DC Metro"
      }
    },
    {
      "type": "Feature",
      "geometry": {
        "type": "Point",
        "coordinates": [
          -77.463206,
          39.020131
        ]
      },
      "properties": {
        "id": 3772,
        "type": "facility",
        "name": "Anexio ACC5",
        "address": "44521 Hastings Dr",
        "city": "Ashburn",
        "state": "VA",
        "netCount": 0,
        "ixCount": 0,
        "region": "DC Metro"
      }
    },
    {
      "type": "Feature",
      "geometry": {
        "type": "Point",
        "coordinates": [
          -77.47841,
          39.001795
        ]
      },
      "properties": {
        "id": 4745,
        "type": "facility",
        "name": "Digital Realty IAD (44100 Digital Loudoun)",
        "address": "44100 Digital Loudoun Plaza",
        "city": "Ashburn",
        "state": "VA",
        "netCount": 5,
        "ixCount": 2,
        "region": "DC Metro"
      }
    },
    {
      "type": "Feature",
      "geometry": {
        "type": "Point",
        "coordinates": [
          -77.481851,
          39.002814
        ]
      },
      "properties": {
        "id": 4750,
        "type": "facility",
        "name": "43915 Devin Shafron",
        "address": "43915 Devin Shafron Drive",
        "city": "Ashburn",
        "state": "VA",
        "netCount": 3,
        "ixCount": 0,
        "region": "DC Metro"
      }
    },
    {
      "type": "Feature",
      "geometry": {
        "type": "Point",
        "coordinates": [
          -77.483444,
          39.002034
        ]
      },
      "properties": {
        "id": 4751,
        "type": "facility",
        "name": "Digital Realty IAD (43881 Devin Shafron)",
        "address": "43881 Devin Shafron Drive",
        "city": "Ashburn",
        "state": "VA",
        "netCount": 2,
        "ixCount": 1,
        "region": "DC Metro"
      }
    },
    {
      "type": "Feature",
      "geometry": {
        "type": "Point",
        "coordinates": [
          -77.487214,
          39.003285
        ]
      },
      "properties": {
        "id": 4752,
        "type": "facility",
        "name": "Digital Realty IAD (43791 Devin Shafron)",
        "address": "43791 Devin Shafron Drive",
        "city": "Ashburn",
        "state": "Va",
        "netCount": 4,
        "ixCount": 1,
        "region": "DC Metro"
      }
    },
    {
      "type": "Feature",
      "geometry": {
        "type": "Point",
        "coordinates": [
          -77.484108,
          39.004182
        ]
      },
      "properties": {
        "id": 4753,
        "type": "facility",
        "name": "Digital Realty IAD (43830 Devin Shafron)",
        "address": "43830 Devin Shafron Dr",
        "city": "Ashburn",
        "state": "Va",
        "netCount": 6,
        "ixCount": 1,
        "region": "DC Metro"
      }
    },
    {
      "type": "Feature",
      "geometry": {
        "type": "Point",
        "coordinates": [
          -77.47841,
          39.001795
        ]
      },
      "properties": {
        "id": 4754,
        "type": "facility",
        "name": "Digital Realty IAD (44060 Digital Loudoun)",
        "address": "44060 Digital Loudoun Plaza",
        "city": "Ashburn",
        "state": "Va",
        "netCount": 2,
        "ixCount": 1,
        "region": "DC Metro"
      }
    },
    {
      "type": "Feature",
      "geometry": {
        "type": "Point",
        "coordinates": [
          -77.459831,
          39.020901
        ]
      },
      "properties": {
        "id": 4755,
        "type": "facility",
        "name": "Digital Realty IAD (44490 Chilum)",
        "address": "44490 Chilum Place",
        "city": "Ashburn",
        "state": "Va",
        "netCount": 1,
        "ixCount": 2,
        "region": "DC Metro"
      }
    },
    {
      "type": "Feature",
      "geometry": {
        "type": "Point",
        "coordinates": [
          -77.459125,
          39.020372
        ]
      },
      "properties": {
        "id": 4756,
        "type": "facility",
        "name": "Digital Realty IAD (44520 Hastings)",
        "address": "44520 Hastings Drive",
        "city": "Ashburn",
        "state": "Va",
        "netCount": 1,
        "ixCount": 1,
        "region": "DC Metro"
      }
    },
    {
      "type": "Feature",
      "geometry": {
        "type": "Point",
        "coordinates": [
          -77.465676,
          39.017522
        ]
      },
      "properties": {
        "id": 4757,
        "type": "facility",
        "name": "Digital Realty IAD (21625 Gresham)",
        "address": "21625 Gresham Drive",
        "city": "Ashburn",
        "state": "Va",
        "netCount": 1,
        "ixCount": 2,
        "region": "DC Metro"
      }
    },
    {
      "type": "Feature",
      "geometry": {
        "type": "Point",
        "coordinates": [
          -77.466327,
          39.014286
        ]
      },
      "properties": {
        "id": 4758,
        "type": "facility",
        "name": "Digital Realty IAD (21745 Sir Timothy)",
        "address": "21745 Sir Timothy Drive",
        "city": "Ashburn",
        "state": "Va",
        "netCount": 0,
        "ixCount": 2,
        "region": "DC Metro"
      }
    },
    {
      "type": "Feature",
      "geometry": {
        "type": "Point",
        "coordinates": [
          -96.822079,
          32.958748
        ]
      },
      "properties": {
        "id": 5187,
        "type": "facility",
        "name": "Digital Realty IAD 39 (44274 Round Table)",
        "address": "44274 Round Table Plaza",
        "city": "Ashburn",
        "state": "Va",
        "netCount": 9,
        "ixCount": 3,
        "region": "DC Metro"
      }
    },
    {
      "type": "Feature",
      "geometry": {
        "type": "Point",
        "coordinates": [
          -77.470655,
          39.019293
        ]
      },
      "properties": {
        "id": 6555,
        "type": "facility",
        "name": "RagingWire VA3 - NTT",
        "address": "21583 Megawatt Dr",
        "city": "Ashburn",
        "state": "VA",
        "netCount": 1,
        "ixCount": 1,
        "region": "DC Metro"
      }
    },
    {
      "type": "Feature",
      "geometry": {
        "type": "Point",
        "coordinates": [
          -77.457559,
          39.02489
        ]
      },
      "properties": {
        "id": 6556,
        "type": "facility",
        "name": "RagingWire VA2 - NTT",
        "address": "44610 Guilford Dr",
        "city": "Ashburn",
        "state": "VA",
        "netCount": 2,
        "ixCount": 1,
        "region": "DC Metro"
      }
    },
    {
      "type": "Feature",
      "geometry": {
        "type": "Point",
        "coordinates": [
          -77.453284,
          39.021941
        ]
      },
      "properties": {
        "id": 6684,
        "type": "facility",
        "name": "Evoque_WDC1 (Bldg A) - Ashburn",
        "address": "21571 Beaumeade Circle",
        "city": "Ashburn",
        "state": "VA",
        "netCount": 9,
        "ixCount": 1,
        "region": "DC Metro"
      }
    },
    {
      "type": "Feature",
      "geometry": {
        "type": "Point",
        "coordinates": [
          -77.478264,
          39.015352
        ]
      },
      "properties": {
        "id": 7359,
        "type": "facility",
        "name": "Sabey Intergate.Ashburn",
        "address": "21741 Red Rum Dr",
        "city": "Ashburn",
        "state": "VA",
        "netCount": 5,
        "ixCount": 0,
        "region": "DC Metro"
      }
    },
    {
      "type": "Feature",
      "geometry": {
        "type": "Point",
        "coordinates": [
          -77.470655,
          39.019293
        ]
      },
      "properties": {
        "id": 7671,
        "type": "facility",
        "name": "RagingWire VA4 - NTT",
        "address": "21583 Megawatt Dr",
        "city": "Ashburn",
        "state": "VA",
        "netCount": 1,
        "ixCount": 1,
        "region": "DC Metro"
      }
    },
    {
      "type": "Feature",
      "geometry": {
        "type": "Point",
        "coordinates": [
          -77.469729,
          39.014003
        ]
      },
      "properties": {
        "id": 7861,
        "type": "facility",
        "name": "Aligned Ashburn (IAD-01)",
        "address": "21890 Uunet Drive",
        "city": "Ashburn",
        "state": "VA",
        "netCount": 2,
        "ixCount": 0,
        "region": "DC Metro"
      }
    },
    {
      "type": "Feature",
      "geometry": {
        "type": "Point",
        "coordinates": [
          -77.48158,
          39.015966
        ]
      },
      "properties": {
        "id": 8340,
        "type": "facility",
        "name": "PhoenixNAP ASHBURN",
        "address": "21635 Red Rum Drive",
        "city": "Ashburn",
        "state": "VA",
        "netCount": 2,
        "ixCount": 0,
        "region": "DC Metro"
      }
    },
    {
      "type": "Feature",
      "geometry": {
        "type": "Point",
        "coordinates": [
          -77.459022,
          39.016363
        ]
      },
      "properties": {
        "id": 8780,
        "type": "facility",
        "name": "mindSHIFT Ashburn",
        "address": "21715 Filigree Ct",
        "city": "Ashburn",
        "state": "VA",
        "netCount": 0,
        "ixCount": 0,
        "region": "DC Metro"
      }
    },
    {
      "type": "Feature",
      "geometry": {
        "type": "Point",
        "coordinates": [
          -77.475168,
          39.000915
        ]
      },
      "properties": {
        "id": 9415,
        "type": "facility",
        "name": "QTS Ashburn (ASH3)",
        "address": "22291 Shellhorn Road",
        "city": "Ashburn",
        "state": "VA",
        "netCount": 6,
        "ixCount": 0,
        "region": "DC Metro"
      }
    },
    {
      "type": "Feature",
      "geometry": {
        "type": "Point",
        "coordinates": [
          -77.457738,
          39.019135
        ]
      },
      "properties": {
        "id": 11651,
        "type": "facility",
        "name": "Cologix ASH1",
        "address": "21673 Beaumeade Cir",
        "city": "Ashburn",
        "state": "VA",
        "netCount": 0,
        "ixCount": 0,
        "region": "DC Metro"
      }
    },
    {
      "type": "Feature",
      "geometry": {
        "type": "Point",
        "coordinates": [
          -77.475185,
          39.010562
        ]
      },
      "properties": {
        "id": 12877,
        "type": "facility",
        "name": "Aligned Ashburn (IAD-02)",
        "address": "21821 Uunet Dr",
        "city": "Ashburn",
        "state": "VA",
        "netCount": 1,
        "ixCount": 0,
        "region": "DC Metro"
      }
    },
    {
      "type": "Feature",
      "geometry": {
        "type": "Point",
        "coordinates": [
          -77.459262,
          39.016494
        ]
      },
      "properties": {
        "id": 14869,
        "type": "facility",
        "name": "RC Solutions",
        "address": "21715 Filigree Court",
        "city": "Ashburn",
        "state": "VA",
        "netCount": 0,
        "ixCount": 0,
        "region": "DC Metro"
      }
    },
    {
      "type": "Feature",
      "geometry": {
        "type": "Point",
        "coordinates": [
          -77.467576,
          39.008455
        ]
      },
      "properties": {
        "id": 14952,
        "type": "facility",
        "name": "RC-Facility",
        "address": "44274 ROUND TABLE PLAZA",
        "city": "Ashburn",
        "state": "VA",
        "netCount": 0,
        "ixCount": 0,
        "region": "DC Metro"
      }
    },
    {
      "type": "Feature",
      "geometry": {
        "type": "Point",
        "coordinates": [
          -77.452284,
          39.024202
        ]
      },
      "properties": {
        "id": 15438,
        "type": "facility",
        "name": "Equinix DC16",
        "address": "44740 Performance Circle",
        "city": "Ashburn",
        "state": "Virginia",
        "netCount": 0,
        "ixCount": 1,
        "region": "DC Metro"
      }
    },
    {
      "type": "Feature",
      "geometry": {
        "type": "Point",
        "coordinates": [
          -77.364541,
          38.950631
        ]
      },
      "properties": {
        "id": 668,
        "type": "facility",
        "name": "CoreSite - Reston (VA1)",
        "address": "12100 Sunrise Valley Drive",
        "city": "Reston",
        "state": "VA",
        "netCount": 70,
        "ixCount": 5,
        "region": "DC Metro"
      }
    },
    {
      "type": "Feature",
      "geometry": {
        "type": "Point",
        "coordinates": [
          -77.346564,
          38.951881
        ]
      },
      "properties": {
        "id": 941,
        "type": "facility",
        "name": "Flex Data Center",
        "address": "11513 Sunset Hills Rd",
        "city": "Reston",
        "state": "VA",
        "netCount": 2,
        "ixCount": 0,
        "region": "DC Metro"
      }
    },
    {
      "type": "Feature",
      "geometry": {
        "type": "Point",
        "coordinates": [
          -77.364545,
          38.948974
        ]
      },
      "properties": {
        "id": 2763,
        "type": "facility",
        "name": "CoreSite - Reston (VA2)",
        "address": "12098 Sunrise Valley Drive",
        "city": "Reston",
        "state": "VA",
        "netCount": 15,
        "ixCount": 2,
        "region": "DC Metro"
      }
    },
    {
      "type": "Feature",
      "geometry": {
        "type": "Point",
        "coordinates": [
          -77.329428,
          38.948869
        ]
      },
      "properties": {
        "id": 2989,
        "type": "facility",
        "name": "Evocative Virginia (VA1)",
        "address": "1807 Michael Faraday Court",
        "city": "Reston",
        "state": "VA",
        "netCount": 6,
        "ixCount": 0,
        "region": "DC Metro"
      }
    },
    {
      "type": "Feature",
      "geometry": {
        "type": "Point",
        "coordinates": [
          -77.327203,
          38.948482
        ]
      },
      "properties": {
        "id": 4759,
        "type": "facility",
        "name": "Digital Realty IAD (1780 Business Center)",
        "address": "1780 Business Center Drive",
        "city": "Reston",
        "state": "Va",
        "netCount": 1,
        "ixCount": 0,
        "region": "DC Metro"
      }
    },
    {
      "type": "Feature",
      "geometry": {
        "type": "Point",
        "coordinates": [
          -77.371495,
          38.948941
        ]
      },
      "properties": {
        "id": 5467,
        "type": "facility",
        "name": "CoreSite - Reston (VA3)",
        "address": "12369 Sunrise Valley Dr",
        "city": "Reston",
        "state": "VA",
        "netCount": 12,
        "ixCount": 2,
        "region": "DC Metro"
      }
    },
    {
      "type": "Feature",
      "geometry": {
        "type": "Point",
        "coordinates": [
          -77.41381,
          39.025827
        ]
      },
      "properties": {
        "id": 2302,
        "type": "facility",
        "name": "CyrusOne Sterling",
        "address": "21111 Ridgetop Circle",
        "city": "Sterling",
        "state": "VA",
        "netCount": 9,
        "ixCount": 2,
        "region": "DC Metro"
      }
    },
    {
      "type": "Feature",
      "geometry": {
        "type": "Point",
        "coordinates": [
          -77.413194,
          39.023339
        ]
      },
      "properties": {
        "id": 2596,
        "type": "facility",
        "name": "Cyxtera Northern Virginia (IAD1)",
        "address": "45901 Nokes Blvd.",
        "city": "Sterling",
        "state": "VA",
        "netCount": 9,
        "ixCount": 0,
        "region": "DC Metro"
      }
    },
    {
      "type": "Feature",
      "geometry": {
        "type": "Point",
        "coordinates": [
          -77.413213,
          39.025283
        ]
      },
      "properties": {
        "id": 2615,
        "type": "facility",
        "name": "Cyxtera Virginia (DC4)",
        "address": "21110 Ridgetop Circle",
        "city": "Sterling",
        "state": "VA",
        "netCount": 1,
        "ixCount": 0,
        "region": "DC Metro"
      }
    },
    {
      "type": "Feature",
      "geometry": {
        "type": "Point",
        "coordinates": [
          -77.423889,
          38.984122
        ]
      },
      "properties": {
        "id": 2616,
        "type": "facility",
        "name": "Cyxtera Northern Virginia (IAD2)",
        "address": "22810 International Drive",
        "city": "Sterling",
        "state": "VA",
        "netCount": 1,
        "ixCount": 1,
        "region": "DC Metro"
      }
    },
    {
      "type": "Feature",
      "geometry": {
        "type": "Point",
        "coordinates": [
          -77.443486,
          38.980226
        ]
      },
      "properties": {
        "id": 2618,
        "type": "facility",
        "name": "Cyxtera Northern Virginia (IAD3)",
        "address": "22995 Wilder Court",
        "city": "Sterling",
        "state": "VA",
        "netCount": 3,
        "ixCount": 1,
        "region": "DC Metro"
      }
    },
    {
      "type": "Feature",
      "geometry": {
        "type": "Point",
        "coordinates": [
          -77.435827,
          39.027202
        ]
      },
      "properties": {
        "id": 4600,
        "type": "facility",
        "name": "CyrusOne Sterling V",
        "address": "21350 Pacific Blvd",
        "city": "Sterling",
        "state": "VA",
        "netCount": 0,
        "ixCount": 2,
        "region": "DC Metro"
      }
    },
    {
      "type": "Feature",
      "geometry": {
        "type": "Point",
        "coordinates": [
          -77.448809,
          39.000373
        ]
      },
      "properties": {
        "id": 5150,
        "type": "facility",
        "name": "QTS Ashburn (ASH1)",
        "address": "22271 Broderick Drive",
        "city": "Sterling",
        "state": "VA",
        "netCount": 3,
        "ixCount": 0,
        "region": "DC Metro"
      }
    },
    {
      "type": "Feature",
      "geometry": {
        "type": "Point",
        "coordinates": [
          -77.414111,
          39.021724
        ]
      },
      "properties": {
        "id": 13479,
        "type": "facility",
        "name": "EdgeCore VA1",
        "address": "45865 Maries Rd",
        "city": "Sterling",
        "state": "VA",
        "netCount": 0,
        "ixCount": 0,
        "region": "DC Metro"
      }
    },
    {
      "type": "Feature",
      "geometry": {
        "type": "Point",
        "coordinates": [
          -77.444362,
          38.994747
        ]
      },
      "properties": {
        "id": 13480,
        "type": "facility",
        "name": "EdgeCore VA2",
        "address": "1501 Moran Rd",
        "city": "Sterling",
        "state": "VA",
        "netCount": 0,
        "ixCount": 0,
        "region": "DC Metro"
      }
    }
  ]
}