[
  {
    "title": "Starwood eyes Marathon Oil Tower resi conversion",
    "url": "https://archive.ph/Hihj1",
    "published_date": "2024-10-08T08:49:36.602772",
    "summary": "",
    "location": {
      "city": "Houston",
      "state": "TX",
      "address": null,
      "latitude": 29.7600771,
      "longitude": -95.37011079999999
    },
    "property_type": "office",
    "new_use": null,
    "size": null,
    "cost": "$50 million",
    "developer": null,
    "completion_date": null,
    "last_updated": "2024-10-08T08:49:36.602777"
  },
  {
    "title": "90% vacant tower with resi conversion potential finds buyer",
    "url": "https://archive.ph/dD1Hc",
    "published_date": "2024-10-08T11:17:34.572855",
    "summary": "",
    "location": {
      "city": "Houston",
      "state": "TX",
      "address": "1021 Main Street",
      "latitude": 29.7564875,
      "longitude": -95.3645956
    },
    "property_type": "office",
    "new_use": null,
    "size": "607,500 square feet",
    "cost": "$100 million",
    "developer": null,
    "completion_date": null,
    "last_updated": "2024-10-08T11:17:34.572861"
  },
  {
    "title": "Most Popular... This Week \u2022 Last 30 Days \u2022 Ever",
    "url": "https://dc.urbanturf.com/articles/blog/400-unit_office-to-residential_conversion_pitched_in_dcs_west_end/22692",
    "published_date": "2024-10-08T14:03:47.974939",
    "summary": "approximately 20,000 square feet of ground-floor retail and 178 below-grade parking spaces.",
    "location": {
      "city": "DC",
      "state": "VA",
      "address": "2100 M Street",
      "latitude": 38.9052617,
      "longitude": -77.0467963
    },
    "property_type": "office",
    "new_use": null,
    "size": "20,000 square feet",
    "cost": "$67 million",
    "developer": null,
    "completion_date": null,
    "last_updated": "2024-10-08T14:03:47.974956"
  }


]